[{"day":"Wednesday","start":"3:00 PM","end":"4:00 PM","name":"A New Day  A New Day","location":"Holy Name Church","address":"207 W 96TH ST New York NY ","lat":"40.7945161","long":"-73.9710419","region":"06","type":"C = Closed Discussion meeting","interest":"Living Sober"},{"day":"Friday","start":"9:00 PM","end":"10:00 PM","name":"A Vision For You  A Vision For You","location":"Christ & St. Stephen's Church","address":"120 W 69TH ST New York NY ","lat":"40.7756982","long":"-73.9810333","region":"06","type":"BB = Big Book meeting","interest":"undefined"},{"day":"Tuesday","start":"6:30 PM","end":"7:45 PM","name":"After Eight (:i)  After Eight","location":"Trinity Presbyterian Church","address":"422 W 57TH ST New York NY ","lat":"40.7682311","long":"-73.9868768","region":"06","type":"C = Closed Discussion meeting","interest":"undefined"},{"day":"Thursday","start":"6:30 PM","end":"7:30 PM","name":"After Eight (:ii)","location":"Phoenix House","address":"164 W 74TH ST New York NY ","lat":"40.7796117","long":"-73.9801807","region":"06","type":"C = Closed Discussion meeting","interest":"AA Literature"},{"day":"Friday","start":"9:30 PM","end":"10:30 PM","name":"Altered Attitudes  Altered Attitudes","location":"Holy Name Church","address":"207 W 96TH ST New York NY ","lat":"40.7945161","long":"-73.9710419","region":"06","type":"OD = Open Discussion meeting","interest":"undefined"},{"day":"Saturday","start":"2:30 PM","end":"4:00 PM","name":"Amsterdam  Amsterdam","location":"St. Gregory's Church","address":"144 W 90TH ST New York NY ","lat":"40.7898068","long":"-73.9723737","region":"06","type":"O = Open meeting","interest":"undefined"},{"day":"Monday","start":"7:00 PM","end":"8:00 PM","name":"Ansonia  Ansonia","location":"Hamilton House","address":"141 W 73RD ST New York NY ","lat":"40.7789036","long":"-73.9799533","region":"06","type":"C = Closed Discussion meeting","interest":"undefined"},{"day":"Friday","start":"7:00 PM","end":"8:00 PM","name":"Atlantic West Step & Tradition  Atlantic West Step & Tradition","location":"Fourth Universalist Church","address":"4 W 76TH IN ST New York NY ","lat":"40.7787605","long":"-73.9745951","region":"06","type":"S = Step meeting","interest":"undefined"},{"day":"Tuesday","start":"7:30 PM","end":"8:30 PM","name":"Bloomingdale  Bloomingdale","location":"Church of the Ascension","address":"221 W 107TH ST New York NY ","lat":"40.8017795","long":"-73.9665393","region":"06","type":"B = Beginners meeting","interest":"undefined"},{"day":"Friday","start":"7:30 PM","end":"8:30 PM","name":"Broadway At 96th  Broadway At 96th","location":"Holy Name Church","address":"207 W 96TH ST New York NY ","lat":"40.7945161","long":"-73.9710419","region":"06","type":"O = Open meeting","interest":"undefined"},{"day":"Thursday","start":"7:00 PM","end":"8:00 PM","name":"Cadillacs For Everyone  Cadillacs For Everyone","location":"Holy Trinity Rectory","address":"215 W 82ND ST New York NY ","lat":"40.7852818734432","long":"-73.9771060064311","region":"06","type":"OD = Open Discussion meeting","interest":"Men"},{"day":"Thursday","start":"12:30 PM","end":"1:30 PM","name":"Campus Cheer  Campus Cheer","location":"Broadway Presbyterian Church","address":"601 W 114TH ST New York NY ","lat":"40.8069051","long":"-73.965058","region":"06","type":"C = Closed Discussion meeting","interest":"undefined"},{"day":"Tuesday","start":"8:15 PM","end":"9:30 PM","name":"Central Park West  Central Park West","location":"Universalist Church","address":"CENTRAL PARK W New York NY ","lat":"40.6639307188879","long":"-73.9382749875207","region":"06","type":"C = Closed Discussion meeting","interest":"undefined"},{"day":"Monday","start":"10:15 PM","end":"11:15 PM","name":"Chelsea Riverside","location":"West Side YMCA at 63rd Street","address":"5 W 63RD ST New York NY ","lat":"40.7708644","long":"-73.9806413","region":"06","type":"C = Closed Discussion meeting","interest":"Topic"},{"day":"Friday","start":"6:30 PM","end":"7:30 PM","name":"Chock Full Of Sobriety","location":"Universalist Church","address":"4 W 76TH ST New York NY ","lat":"40.7787605","long":"-73.9745951","region":"06","type":"C = Closed Discussion meeting","interest":"undefined"},{"day":"Sunday","start":"6:00 PM","end":"7:00 PM","name":"Classen Hall     (:ii)  Classen Hall    (:ii)","location":"Fourth Universalist Society","address":"160 CENTRAL PARK W New York NY ","lat":"40.7787712","long":"-73.9743066","region":"06","type":"B = Beginners meeting","interest":"undefined"},{"day":"Sunday","start":"6:15 PM","end":"7:45 PM","name":"Classen Hall Step Meeting  ( :i )  Classen Hall","location":"Good Shepherd Faith Church","address":"152 W 66TH ST New York NY ","lat":"40.7744405","long":"-73.9838262","region":"06","type":"S = Step meeting","interest":"Twelve Steps"},{"day":"Sunday","start":"5:00 PM","end":"6:00 PM","name":"Columbus At Five  Columbus At Five","location":"Second Presbyterian Church","address":"3 W 95TH ST New York NY ","lat":"40.7912379","long":"-73.9655109","region":"06","type":"C = Closed Discussion meeting","interest":"Children Welcome"},{"day":"Friday","start":"7:30 PM","end":"8:45 PM","name":"Eightieth Street Beginners","location":"All Angels Church","address":"251 W 80TH ST New York NY ","lat":"40.7848713","long":"-73.9800524","region":"06","type":"C = Closed Discussion meeting","interest":"undefined"},{"day":"Friday","start":"8:15 AM","end":"9:15 AM","name":"Fast Break  Fast Break","location":"Hargrave House","address":"111 W 71ST ST New York NY ","lat":"40.7769996","long":"-73.9796679","region":"06","type":"C = Closed Discussion meeting","interest":"undefined"},{"day":"Sunday","start":"8:00 AM","end":"9:00 AM","name":"Fast Break Weekend","location":"West Side YMCA","address":"5 W 63RD ST New York NY ","lat":"40.7708644","long":"-73.9806413","region":"06","type":"C = Closed Discussion meeting","interest":"undefined"},{"day":"Sunday","start":"12:30 PM","end":"1:30 PM","name":"Fireside  (:ii)  Weekend Meetings Only","location":"West Side YMCA","address":"5 W 63RD ST New York NY ","lat":"40.7708644","long":"-73.9806413","region":"06","type":"B = Beginners meeting","interest":"undefined"},{"day":"Sunday","start":"10:15 AM","end":"11:15 AM","name":"First Things First  First Things First","location":"Holy Name Church","address":"207 W 96TH ST New York NY ","lat":"40.7945161","long":"-73.9710419","region":"06","type":"T = Tradition meeting","interest":"undefined"},{"day":"Friday","start":"6:30 PM","end":"7:45 PM","name":"Friday Night Step","location":"Church of St. Matthew and St. Timothy","address":"26 W 84TH ST New York NY ","lat":"40.7844228","long":"-73.9716168","region":"06","type":"S = Step meeting","interest":"undefined"},{"day":"Sunday","start":"4:30 PM","end":"5:30 PM","name":"Grupo Camino Real  Grupo Camino Real","location":"Holy Name School","address":"200 W 97TH ST New York NY ","lat":"40.7946604892952","long":"-73.9699229082063","region":"06","type":"OD = Open Discussion meeting","interest":"undefined"},{"day":"Sunday","start":"7:30 PM","end":"8:30 PM","name":"Grupo Dulces 24  Grupo Dulces 24","location":"Grace House","address":"218 W 108TH ST New York NY ","lat":"40.8021037","long":"-73.9658778","region":"06","type":"O = Open meeting","interest":"undefined"},{"day":"Tuesday","start":"7:30 PM","end":"8:30 PM","name":"Grupo Luz Divina","location":"Iglesia Metodista Grace","address":"125 W 104TH ST New York NY ","lat":"40.7986785","long":"-73.9648897","region":"06","type":"O = Open meeting","interest":"undefined"},{"day":"Friday","start":"7:00 PM","end":"8:00 PM","name":"Hargrave  Hargrave House","location":"Hamilton House","address":"141 W 73RD ST New York NY ","lat":"40.7789036","long":"-73.9799533","region":"06","type":"B = Beginners meeting","interest":"undefined"},{"day":"Saturday","start":"6:00 PM","end":"7:00 PM","name":"Lambda West  Lambda West","location":"Rutgers Church","address":"236 W 73RD ST New York NY ","lat":"40.7796494","long":"-73.982239","region":"06","type":"S = Step meeting","interest":"Gay, Lesbian and Bisexual"},{"day":"Wednesday","start":"7:00 PM","end":"8:00 PM","name":"Manhattan Valley  Manhattan Valley","location":"West End Presbyterian Church","address":"165 W 105TH ST New York NY ","lat":"40.7996866","long":"-73.9657282","region":"06","type":"B = Beginners meeting","interest":"undefined"},{"day":"Sunday","start":"5:45 PM","end":"7:00 PM","name":"Metropolis Men's Meeting","location":"Holy Name Church","address":"207 W 96TH ST New York NY ","lat":"40.7945161","long":"-73.9710419","region":"06","type":"C = Closed Discussion meeting","interest":"undefined"},{"day":"Friday","start":"1:00 PM","end":"2:00 PM","name":"Midday Cheer - Mid-day Cheer","location":"Holy Name Church Rectory","address":"207 W 96TH ST New York NY ","lat":"40.7945161","long":"-73.9710419","region":"06","type":"S = Step meeting","interest":"undefined"},{"day":"Saturday","start":"9:15 PM","end":"10:15 PM","name":"Morningside  Morningside","location":"Advent Lutheran Church","address":"2504 BROADWAY New York NY ","lat":"40.7927534","long":"-73.972842","region":"06","type":"OD = Open Discussion meeting","interest":"undefined"},{"day":"Friday","start":"6:30 PM","end":"7:30 PM","name":"Morningside Heights Beginners","location":"Church of Notre Dame","address":"405 W 114TH ST New York NY ","lat":"40.8051126","long":"-73.9607974","region":"06","type":"B = Beginners meeting","interest":"undefined"},{"day":"Tuesday","start":"7:30 PM","end":"8:30 PM","name":"Never Too Late  Never Too Late","location":"West End Collegiate Church","address":"368 W END AVE New York NY ","lat":"40.783225","long":"-73.9817572","region":"06","type":"C = Closed Discussion meeting","interest":"undefined"},{"day":"Monday","start":"6:30 PM","end":"7:30 PM","name":"Night Light  Night Light","location":"St. Michael's Parish House","address":"225 W 99TH ST New York NY ","lat":"40.7964452","long":"-73.9694226","region":"06","type":"S = Step meeting","interest":"undefined"},{"day":"Thursday","start":"6:00 PM","end":"7:00 PM","name":"Night Light Beginners  Night Light Beginners","location":"Anshe Chesed Synagogue","address":"251 W 100TH ST New York NY ","lat":"40.7977791","long":"-73.9709911","region":"06","type":"B = Beginners meeting","interest":"undefined"},{"day":"Sunday","start":"10:00 PM","end":"11:00 PM","name":"Ninetysixth Street Workshop - Ninety-sixth Street Workshop","location":"Holy Name Church","address":"207 W 96TH ST New York NY ","lat":"40.7945161","long":"-73.9710419","region":"06","type":"T = Tradition meeting","interest":"undefined"},{"day":"Thursday","start":"7:30 PM","end":"8:30 PM","name":"Oxford  (:i)  Oxford","location":"Church of St. Matthew & St. Timothy","address":"26 W 84TH ST New York NY ","lat":"40.7844228","long":"-73.9716168","region":"06","type":"BB = Big Book meeting","interest":"undefined"},{"day":"Saturday","start":"6:30 PM","end":"7:30 PM","name":"Promises Promises  Promises Promises","location":"West Side YMCA","address":"5 W 63RD ST New York NY ","lat":"40.7708644","long":"-73.9806413","region":"06","type":"C = Closed Discussion meeting","interest":"undefined"},{"day":"Sunday","start":"7:00 PM","end":"8:00 PM","name":"Renewal West  Renewal West","location":"St. Ignatius Church","address":"552 W END AVE New York NY ","lat":"40.78931","long":"-73.9773114","region":"06","type":"B = Beginners meeting","interest":"undefined"},{"day":"Saturday","start":"6:00 PM","end":"7:00 PM","name":"Routes","location":"Phoenix House","address":"164 W 74 ST New York NY ","lat":"40.7796117","long":"-73.9801807","region":"06","type":"B = Beginners meeting","interest":"undefined"},{"day":"Wednesday","start":"8:30 PM","end":"9:30 PM","name":"Rude Awakening  Rude Awakening","location":"Volunteers of America","address":"340 W 85TH ST New York NY ","lat":"40.7887343","long":"-73.9798639","region":"06","type":"C = Closed Discussion meeting","interest":"Living Sober"},{"day":"Wednesday","start":"8:15 PM","end":"9:15 PM","name":"Smithereens  Smithereens","location":"West End Collegiate Church","address":"368 W END AVE New York NY ","lat":"40.783225","long":"-73.9817572","region":"06","type":"S = Step meeting","interest":"undefined"},{"day":"Saturday","start":"6:30 PM","end":"7:30 PM","name":"Sober Stepping  Sober Stepping","location":"Blessed Sacrament Church Rectory","address":"152 W 71ST ST New York NY ","lat":"40.7774259","long":"-73.9812051","region":"06","type":"S = Step meeting","interest":"Promises"},{"day":"Sunday","start":"10:30 AM","end":"11:30 AM","name":"Sunday Men's Topic  Sunday Men's Topic","location":"West Side YMCA","address":"5 W 63RD ST New York NY ","lat":"40.7708644","long":"-73.9806413","region":"06","type":"C = Closed Discussion meeting","interest":"Men"},{"day":"Sunday","start":"12:00 PM","end":"1:00 PM","name":"Sunday West  Sunday West","location":"","address":"131 W 72ND ST New York NY ","lat":"40.7780247","long":"-73.9798344","region":"06","type":"C = Closed Discussion meeting","interest":"undefined"},{"day":"Friday","start":"4:30 PM","end":"5:30 PM","name":"Turn It Over  Turn It Over","location":"Holy Name Church","address":"207 W 96TH ST New York NY ","lat":"40.7945161","long":"-73.9710419","region":"06","type":"S = Step meeting","interest":"undefined"},{"day":"Saturday","start":"11:15 AM","end":"12:15 PM","name":"Way Of Life  Way Of Life","location":"Blessed Sacrament Church Rectory","address":"152 W 71ST ST New York NY ","lat":"40.7774259","long":"-73.9812051","region":"06","type":"C = Closed Discussion meeting","interest":"undefined"},{"day":"Thursday","start":"6:15 PM","end":"7:15 PM","name":"We Agnostics Of Nyc  We Agnostics Of Nyc","location":"Stephen Wise Free Synagogue","address":"30 W 68TH ST New York NY ","lat":"40.7740859","long":"-73.979107","region":"06","type":"C = Closed Discussion meeting","interest":"Agnostic"},{"day":"Wednesday","start":"4:45 PM","end":"5:45 PM","name":"We Are Not Doctors (westside)","location":"Holy Name Church","address":"207 W 96TH ST New York NY ","lat":"40.7945161","long":"-73.9710419","region":"06","type":"OD = Open Discussion meeting","interest":"Medication"},{"day":"Thursday","start":"7:00 PM","end":"8:00 PM","name":"West End  West End","location":"Church of St. Paul & St. Andrew","address":"263 W 86TH ST New York NY ","lat":"40.7887918","long":"-73.9772649","region":"06","type":"S = Step meeting","interest":"undefined"},{"day":"Wednesday","start":"7:00 PM","end":"8:00 PM","name":"Westside 11th Step Meditation Workshop  Westside 11th Step Meditation Workshop","location":"Addiction Institute","address":"306 W 102ND ST New York NY ","lat":"40.7992334","long":"-73.9710638","region":"06","type":"C = Closed Discussion meeting","interest":"undefined"},{"day":"Friday","start":"7:00 PM","end":"8:00 PM","name":"Westside Step  Westside Step","location":"Blessed Sacrament Church Rectory","address":"152 W 71ST ST New York NY ","lat":"40.7774259","long":"-73.9812051","region":"06","type":"S = Step meeting","interest":"undefined"},{"day":"Saturday","start":"7:00 PM","end":"8:00 PM","name":"Westside Young People  Westside Young People","location":"Church of St.Matthew & St. Timothy","address":"26 W 84TH ST New York NY ","lat":"40.7844228","long":"-73.9716168","region":"06","type":"B = Beginners meeting","interest":"Young People"},{"day":"Saturday","start":"5:00 PM","end":"6:00 PM","name":"Without A Prayer","location":"Goddard Riverside Community Center","address":"595 COLUMBUS AVE New York NY ","lat":"40.7879892","long":"-73.9707609","region":"06","type":"OD = Open Discussion meeting","interest":"Agnostic"},{"day":"Saturday","start":"9:00 AM","end":"10:00 AM","name":"Women Living Sober  Women Living Sober","location":"Trinity Halfway House","address":"306 W 102ND ST New York NY ","lat":"40.7992334","long":"-73.9710638","region":"06","type":"C = Closed Discussion meeting","interest":"Women"},{"day":"Friday","start":"7:00 PM","end":"8:00 PM","name":"Women West Aa  Women West Aa","location":"Holy Trinity Church","address":"213 W 82ND ST New York NY ","lat":"40.7855603","long":"-73.9776992","region":"06","type":"C = Closed Discussion meeting","interest":"Women"},{"day":"Thursday","start":"12:00 PM","end":"1:00 PM","name":"Women's Beginning Literature","location":"Blessed Sacrament (Rectory)","address":"152 W 71ST ST New York NY ","lat":"40.7774259","long":"-73.9812051","region":"06","type":"C = Closed Discussion meeting","interest":"Women"},{"day":"Monday","start":"12:00 PM","end":"1:00 PM","name":"Women's Eleventh Step Meeting","location":"","address":"152 W 71ST ST New York NY ","lat":"40.7774259","long":"-73.9812051","region":"06","type":"OD = Open Discussion meeting","interest":"Women"},{"day":"Monday","start":"12:00 PM","end":"1:15 PM","name":"Women's Tell It Like It Is  Women's Tell It Like It Is","location":"Blessed Sacrament (Rectory)","address":"152 W 71ST ST New York NY ","lat":"40.7774259","long":"-73.9812051","region":"06","type":"C = Closed Discussion meeting","interest":"Women"},{"day":"Tuesday","start":"6:30 PM","end":"7:30 PM","name":"Women's Westside Topic  Women's Westside Topic","location":"Universalist Church","address":"160 CENTRAL PARK W New York NY ","lat":"40.7787712","long":"-73.9743066","region":"06","type":"C = Closed Discussion meeting","interest":"Women"},{"day":"Wednesday","start":"6:00 PM","end":"7:00 PM","name":"Writing Sober  Writing Sober","location":"Holy Name Church","address":"207 W 96TH ST New York NY ","lat":"40.7945161","long":"-73.9710419","region":"06","type":"C = Closed Discussion meeting","interest":"Special Purpose Groups"}]