[{"day":"Wednesday","start":"6:00 PM","end":"7:00 PM","name":"A Chance To Live Again  A Chance To Live Again","location":"SRO Building","address":"109 W 129TH ST New York NY ","lat":"40.8106798","long":"-73.944244","region":"08","type":"BB = Big Book meeting","interest":"undefined"},{"day":"Friday","start":"10:00 AM","end":"11:00 AM","name":"Aa It Works  Ii  Aa It Works Ii","location":"Union Baptist Church","address":"240 W 145TH ST New York NY ","lat":"40.8222189","long":"-73.9408621","region":"08","type":"S = Step meeting","interest":"undefined"},{"day":"Saturday","start":"7:30 AM","end":"8:30 AM","name":"Attitude Adjustment  Attitude Adjustment","location":"Our Lady of Lourdes Church","address":"469 W 142ND ST New York NY ","lat":"40.8232166","long":"-73.9484769","region":"08","type":"OD = Open Discussion meeting","interest":"undefined"},{"day":"Saturday","start":"11:30 AM","end":"1:00 PM","name":"Convent","location":"St. Phillip Church","address":"204 W 134TH ST New York NY ","lat":"40.8147959","long":"-73.9448542","region":"08","type":"OD = Open Discussion meeting","interest":"undefined"},{"day":"Friday","start":"12:15 PM","end":"1:15 PM","name":"Fellowship At Noon  Fellowship At Noon","location":"Spiritual Renewal Church","address":"2044 ADAM CLAYTON POWELL BLVD New York NY ","lat":"40.8072583","long":"-73.9499047","region":"08","type":"OD = Open Discussion meeting","interest":"undefined"},{"day":"Thursday","start":"8:00 PM","end":"9:00 PM","name":"Grupo Trasmitelo","location":"","address":"469 W 142ND ST New York NY ","lat":"40.8232166","long":"-73.9484769","region":"08","type":"B = Beginners meeting","interest":"undefined"},{"day":"Monday","start":"12:00 PM","end":"1:00 PM","name":"Harlem Humanists","location":"St. Mary's Episcopal","address":"521 W 126TH ST New York NY ","lat":"40.8148408","long":"-73.9561515","region":"08","type":"O = Open meeting","interest":"Agnostic"},{"day":"Sunday","start":"7:00 PM","end":"8:00 PM","name":"K.i.s.s.  Keep It Simple (kiss)","location":"SRO Building Community Room","address":"109 W 129TH ST New York NY ","lat":"40.8106798","long":"-73.944244","region":"08","type":"B = Beginners meeting","interest":"undefined"},{"day":"Thursday","start":"6:00 PM","end":"7:00 PM","name":"Learning To Live Sober  Learning To Live Sober","location":"Our Lady of Lourdes","address":"469 W 142ND ST New York NY ","lat":"40.8232166","long":"-73.9484769","region":"08","type":"BB = Big Book meeting","interest":"undefined"},{"day":"Sunday","start":"6:00 PM","end":"7:30 PM","name":"Living Clean And Sober On 121st Street  Living Clean And Sober On 121st Street","location":"","address":"2044 SEVENTH AVE New York NY ","lat":"40.8071759186691","long":"-73.9497519327616","region":"08","type":"B = Beginners meeting","interest":"undefined"},{"day":"Monday","start":"4:30 PM","end":"5:30 PM","name":"Meditation Comes To Harlem  Meditation Comes To Harlem","location":"S.A.G.E.","address":"127 W 127TH ST New York NY ","lat":"40.8095378","long":"-73.9453852","region":"08","type":"C = Closed Discussion meeting","interest":"undefined"},{"day":"Friday","start":"8:00 PM","end":"9:00 PM","name":"Midharlem - Mid-harlem","location":"Grace Congregational Baptist Church","address":"310 W 139TH ST New York NY ","lat":"40.8192096","long":"-73.9453784","region":"08","type":"O = Open meeting","interest":"undefined"},{"day":"Monday","start":"7:00 PM","end":"8:00 PM","name":"Monday Night Challenge  Monday Night Challenge","location":"St. James Church","address":"409 W 141ST ST New York NY ","lat":"40.8215113","long":"-73.9463991","region":"08","type":"B = Beginners meeting","interest":"undefined"},{"day":"Sunday","start":"3:00 PM","end":"4:00 PM","name":"Primary Purpose  Primary Purpose","location":"Riverside Church","address":"91 CLAREMONT AVE New York NY ","lat":"40.8119559","long":"-73.9625116","region":"08","type":"OD = Open Discussion meeting","interest":"undefined"},{"day":"Sunday","start":"11:00 AM","end":"12:00 PM","name":"Promises Two For One  Promises Two For One","location":"Upper Manhattan Mental Health Center","address":"1727 AMSTERDAM AVE New York NY ","lat":"40.8255289","long":"-73.9471616","region":"08","type":"C = Closed Discussion meeting","interest":"undefined"},{"day":"Saturday","start":"5:00 PM","end":"6:00 PM","name":"Reality Check  Reality Check","location":"Our Lady of Lourdes Church","address":"469 W 142ND ST New York NY ","lat":"40.8232166","long":"-73.9484769","region":"08","type":"OD = Open Discussion meeting","interest":"Men"},{"day":"Monday","start":"7:00 PM","end":"8:00 PM","name":"Riverside  Riverside","location":"Riverside Church","address":"91 CLAREMONT AVE New York NY ","lat":"40.8119559","long":"-73.9625116","region":"08","type":"C = Closed Discussion meeting","interest":"undefined"},{"day":"Saturday","start":"6:00 PM","end":"7:00 PM","name":"Riverton  Riverton","location":"St. Aloysius School","address":"219 W 132ND ST New York NY ","lat":"40.8138548","long":"-73.9459315","region":"08","type":"O = Open meeting","interest":"undefined"},{"day":"Wednesday","start":"7:30 PM","end":"8:30 PM","name":"Salem  Salem","location":"Salem United Methodist Church Community Center","address":"211 W 129TH ST New York NY ","lat":"40.8119105","long":"-73.9471217","region":"08","type":"C = Closed Discussion meeting","interest":"undefined"},{"day":"Wednesday","start":"7:00 PM","end":"8:00 PM","name":"Sober Adult Men  Sober Adult Men","location":"Convent Baptist Church Education Building","address":"425 W 144TH ST New York NY ","lat":"40.8238524","long":"-73.9461167","region":"08","type":"C = Closed Discussion meeting","interest":"Men"},{"day":"Sunday","start":"4:00 PM","end":"5:00 PM","name":"St. Nicholas  St. Nicholas","location":"St. Phillip's Church","address":"204 W 134TH ST New York NY ","lat":"40.8147959","long":"-73.9448542","region":"08","type":"O = Open meeting","interest":"undefined"},{"day":"Sunday","start":"2:00 PM","end":"3:00 PM","name":"Steps 3 And 11  Steps Three-eleven","location":"Harlem Hospital King Pavilion","address":"506 LENOX AVE New York NY ","lat":"40.8143457","long":"-73.9403066","region":"08","type":"B = Beginners meeting","interest":"undefined"},{"day":"Friday","start":"5:30 PM","end":"6:30 PM","name":"Sugar Hill","location":"Council Center for Problems of Living","address":"1727 AMSTERDAM AVE New York NY ","lat":"40.8255289","long":"-73.9471616","region":"08","type":"B = Beginners meeting","interest":"undefined"},{"day":"Tuesday","start":"6:00 PM","end":"7:00 PM","name":"Tuesday Big Book Study  Tuesday Big Book Study","location":"","address":"1854 AMSTERDAM AVE New York NY ","lat":"40.8295902","long":"-73.9446541","region":"08","type":"BB = Big Book meeting","interest":"undefined"},{"day":"Saturday","start":"9:30 AM","end":"11:00 AM","name":"Uptown Big Book Workshop","location":"Our Lady of Lourdes Church","address":"469 W 142ND ST New York NY ","lat":"40.8232166","long":"-73.9484769","region":"08","type":"BB = Big Book meeting","interest":"Big Book Workshop"},{"day":"Tuesday","start":"6:30 PM","end":"7:30 PM","name":"You May Care After  You May Care After","location":"Metropolitan AME Church","address":"5866 W 135TH ST New York NY ","lat":"40.6639307188879","long":"-73.9382749875207","region":"08","type":"S = Step meeting","interest":"undefined"}]