[{"day":"Sunday","start":"4:00 PM","end":"5:00 PM","name":"4 The Grace","location":"46th Street Club House","address":"252 W 46TH ST New York NY ","lat":"40.7593831","long":"-73.9872329","region":"04","type":"BB = Big Book meeting","interest":"undefined"},{"day":"Sunday","start":"9:15 PM","end":"10:15 PM","name":"42nd At 9:00pm","location":"","address":"303 W 42ND ST New York NY ","lat":"40.7575385","long":"-73.9901368","region":"04","type":"OD = Open Discussion meeting","interest":"Beginners Workshop"},{"day":"Sunday","start":"8:00 AM","end":"9:00 AM","name":"A New Freedom","location":"","address":"303 W 42ND ST New York NY ","lat":"40.7575385","long":"-73.9901368","region":"04","type":"S = Step meeting","interest":"undefined"},{"day":"Wednesday","start":"8:00 PM","end":"9:00 PM","name":"Abingdon Square In Chelsea  Abingdon Square In Chelsea","location":"S.A.G.E.","address":"305 7TH AVE New York NY ","lat":"40.6675622","long":"-73.9808369","region":"04","type":"OD = Open Discussion meeting","interest":"undefined"},{"day":"Friday","start":"7:00 PM","end":"8:00 PM","name":"Adventures In Sobriety","location":"Saint Thomas Church","address":"1 W 53RD ST New York NY ","lat":"40.7608523","long":"-73.9765938","region":"04","type":"O = Open meeting","interest":"Gay, Lesbian and Bisexual"},{"day":"Sunday","start":"8:00 PM","end":"9:00 PM","name":"Alanon House   (aa Meetings Only)","location":"","address":"303 W 42ND ST New York NY ","lat":"40.7575385","long":"-73.9901368","region":"04","type":"C = Closed Discussion meeting","interest":"undefined"},{"day":"Friday","start":"7:30 AM","end":"8:30 AM","name":"Amazing Grace  Amazing Grace","location":"St. Mary the Virgin Church","address":"133 W 46TH ST New York NY ","lat":"40.6589343","long":"-73.9348705","region":"04","type":"C = Closed Discussion meeting","interest":"undefined"},{"day":"Saturday","start":"3:00 PM","end":"4:00 PM","name":"Annex                               (:i)  Annex    (:i)","location":"Hudson Guild","address":"441 W 26TH ST New York NY ","lat":"40.7495486","long":"-74.0015106","region":"04","type":"OD = Open Discussion meeting","interest":"undefined"},{"day":"Tuesday","start":"8:00 PM","end":"9:00 PM","name":"Annex    (:ii)  Annex    (:ii)","location":"GMHC","address":"446 W 33RD ST New York NY ","lat":"40.753496","long":"-73.9989428","region":"04","type":"O = Open meeting","interest":"Gay, Lesbian and Bisexual"},{"day":"Tuesday","start":"9:15 PM","end":"10:15 PM","name":"Artists In Recovery","location":"46th Street Clubhouse","address":"252 W 46TH ST New York NY ","lat":"40.7593831","long":"-73.9872329","region":"04","type":"C = Closed Discussion meeting","interest":"Special Purpose Groups"},{"day":"Saturday","start":"1:30 PM","end":"2:30 PM","name":"Beginners","location":"46th Street Club House","address":"252 W 46TH ST New York NY ","lat":"40.7593831","long":"-73.9872329","region":"04","type":"B = Beginners meeting","interest":"Living Sober"},{"day":"Sunday","start":"2:45 PM","end":"3:45 PM","name":"Beginners","location":"46th Street Club House","address":"252 W 46TH ST New York NY ","lat":"40.7593831","long":"-73.9872329","region":"04","type":"B = Beginners meeting","interest":"undefined"},{"day":"Wednesday","start":"5:00 PM","end":"6:00 PM","name":"Between Shows  Between Shows","location":"The Actor's Temple","address":"339 W 47TH ST New York NY ","lat":"40.7612077","long":"-73.9891128","region":"04","type":"C = Closed Discussion meeting","interest":"undefined"},{"day":"Saturday","start":"4:30 PM","end":"5:30 PM","name":"Blueprint For Living","location":"","address":"303 W 42ND ST New York NY ","lat":"40.7575385","long":"-73.9901368","region":"04","type":"S = Step meeting","interest":"undefined"},{"day":"Friday","start":"12:00 PM","end":"1:00 PM","name":"Bookshop At Noon  Bookshop At Noon","location":"St. Francis of Assisi Education Center","address":"139 W 31ST ST New York NY ","lat":"40.647412","long":"-73.9480599","region":"04","type":"C = Closed Discussion meeting","interest":"undefined"},{"day":"Sunday","start":"6:00 PM","end":"7:00 PM","name":"Clean And Dry  Clean And Dry","location":"Trinity Presbyterian Church","address":"422 W 57TH ST New York NY ","lat":"40.7682311","long":"-73.9868768","region":"04","type":"OD = Open Discussion meeting","interest":"undefined"},{"day":"Wednesday","start":"6:00 PM","end":"7:00 PM","name":"Commuters Special  Commuters Special","location":"St. John's Hall","address":"211 W 30TH ST New York NY ","lat":"40.7486793956479","long":"-73.9927286472649","region":"04","type":"C = Closed Discussion meeting","interest":"undefined"},{"day":"Saturday","start":"12:00 PM","end":"1:00 PM","name":"D.i.v.a.  (divinely Inspired Vivacious Alcoholics)","location":"46th Street Club House","address":"252 W 46TH ST New York NY ","lat":"40.7593831","long":"-73.9872329","region":"04","type":"C = Closed Discussion meeting","interest":"Women"},{"day":"Saturday","start":"10:00 AM","end":"11:00 AM","name":"Fifth Avenue Step","location":"St. Thomas Church","address":"1 W 53RD ST New York NY ","lat":"40.7608523","long":"-73.9765938","region":"04","type":"S = Step meeting","interest":"undefined"},{"day":"Friday","start":"12:30 PM","end":"1:30 PM","name":"Fireside  (:i)  Weekday Meetings Only  Fireside","location":"Trinity Presbyterian Church","address":"422 W 57TH ST New York NY ","lat":"40.7682311","long":"-73.9868768","region":"04","type":"OD = Open Discussion meeting","interest":"undefined"},{"day":"Thursday","start":"12:30 PM","end":"1:30 PM","name":"Fogliftersfifth Avenue - Foglifters-fifth Avenue","location":"Fifth Av Presbyterian Church","address":"7 W 55TH ST New York NY ","lat":"40.7618823","long":"-73.9751297","region":"04","type":"OD = Open Discussion meeting","interest":"undefined"},{"day":"Sunday","start":"10:30 PM","end":"11:30 PM","name":"Fortyfive Solutions - Forty-five Solutions","location":"46th Street Club House","address":"252 W 46TH ST New York NY ","lat":"40.7593831","long":"-73.9872329","region":"04","type":"C = Closed Discussion meeting","interest":"undefined"},{"day":"Thursday","start":"5:30 PM","end":"6:30 PM","name":"Green Room  Green Room","location":"The Actors Fund of America","address":"729 7TH AVE New York NY ","lat":"40.7601119","long":"-73.9837538","region":"04","type":"C = Closed Discussion meeting","interest":"Special Purpose Groups"},{"day":"Friday","start":"8:00 PM","end":"9:00 PM","name":"Grupo Buena Voluntad  Grupo Buena Voluntad","location":"Apartment Building","address":"538 W 47TH ST New York NY ","lat":"40.7634021","long":"-73.9948352","region":"04","type":"Sp = Spanish speaking group","interest":"undefined"},{"day":"Thursday","start":"7:30 PM","end":"8:30 PM","name":"Hell's Kitchen  Hell's Kitchen","location":"Mount Sinai - Roosevelt Hospital","address":"1000 TENTH AVE New York NY ","lat":"40.7700536177104","long":"-73.9877635987168","region":"04","type":"C = Closed Discussion meeting","interest":"undefined"},{"day":"Tuesday","start":"7:30 PM","end":"8:30 PM","name":"Henry Hudson  Henry Hudson","location":"","address":"303 W 42ND ST New York NY ","lat":"40.7575385","long":"-73.9901368","region":"04","type":"BB = Big Book meeting","interest":"undefined"},{"day":"Monday","start":"9:15 PM","end":"10:15 PM","name":"Joe And Charlie Cd Meeting","location":"46th Street Club House","address":"252 W 46TH ST New York NY ","lat":"40.7593831","long":"-73.9872329","region":"04","type":"B = Beginners meeting","interest":"undefined"},{"day":"Friday","start":"12:00 PM","end":"1:00 PM","name":"Learning To Live (:i)  Learning To Live","location":"Upright Citizens Brigade Theatre","address":"307 W 26TH ST New York NY ","lat":"40.7474685","long":"-73.9974137","region":"04","type":"OD = Open Discussion meeting","interest":"undefined"},{"day":"Wednesday","start":"1:00 PM","end":"2:00 PM","name":"Lucky Ones","location":"St. Paul's Episcopal Parish House","address":"405 W 59TH ST New York NY ","lat":"40.7697538","long":"-73.9857965","region":"04","type":"BB = Big Book meeting","interest":"undefined"},{"day":"Sunday","start":"12:00 AM","end":"1:00 AM","name":"Midnight In Midtown","location":"","address":"303 W 42ND ST New York NY ","lat":"40.7575385","long":"-73.9901368","region":"04","type":"S = Step meeting","interest":"undefined"},{"day":"Monday","start":"7:00 PM","end":"8:00 PM","name":"Miracle  Miracle","location":"Trinity Presbyterian Church ","address":"422 W 57TH ST New York NY ","lat":"40.7682311","long":"-73.9868768","region":"04","type":"B = Beginners meeting","interest":"undefined"},{"day":"Thursday","start":"6:00 AM","end":"7:00 AM","name":"Morning Call","location":"St. Mary the Virgin Church","address":"133 W 46TH ST New York NY ","lat":"40.6589343","long":"-73.9348705","region":"04","type":"B = Beginners meeting","interest":"undefined"},{"day":"Sunday","start":"5:00 PM","end":"6:00 PM","name":"New But West  New But West","location":"St. Mary the Virgin Church","address":"133 W 46TH ST New York NY ","lat":"40.6589343","long":"-73.9348705","region":"04","type":"C = Closed Discussion meeting","interest":"undefined"},{"day":"Sunday","start":"10:30 AM","end":"11:30 AM","name":"New Phoenix","location":"","address":"303 W 42ND ST New York NY ","lat":"40.7575385","long":"-73.9901368","region":"04","type":"C = Closed Discussion meeting","interest":"undefined"},{"day":"Wednesday","start":"9:00 PM","end":"10:00 PM","name":"Ninth Avenue           (:i)  Ninth Avenue     (:i)","location":"Holy Apostles Church Rectory","address":"296 9TH AVE New York NY ","lat":"40.7493539","long":"-73.998973","region":"04","type":"B = Beginners meeting","interest":"First Step Workshop"},{"day":"Sunday","start":"6:00 PM","end":"7:30 PM","name":"Nu Garden  Nu Garden","location":"St. Francis of Assisi Center","address":"139 W 31ST ST New York NY ","lat":"40.647412","long":"-73.9480599","region":"04","type":"S = Step meeting","interest":"undefined"},{"day":"Tuesday","start":"12:30 PM","end":"1:30 PM","name":"Park Bench   (:i)","location":"St. Thomas Church","address":"1 W 53RD ST New York NY ","lat":"40.7608523","long":"-73.9765938","region":"04","type":"OD = Open Discussion meeting","interest":"undefined"},{"day":"Saturday","start":"7:00 PM","end":"8:00 PM","name":"Powerless  Powerless","location":"Manhattan Plaza Health Club","address":"484 W 43RD ST New York NY ","lat":"40.7599913","long":"-73.9948326","region":"04","type":"C = Closed Discussion meeting","interest":"Promises"},{"day":"Friday","start":"12:30 PM","end":"1:30 PM","name":"Promises  Promises","location":"Fifth Av Presbyterian Church","address":"7 W 55TH ST New York NY ","lat":"40.7618823","long":"-73.9751297","region":"04","type":"OD = Open Discussion meeting","interest":"undefined"},{"day":"Thursday","start":"9:15 PM","end":"10:15 PM","name":"Promises","location":"46th Street Club House","address":"252 W 46TH ST New York NY ","lat":"40.7593831","long":"-73.9872329","region":"04","type":"S = Step meeting","interest":"undefined"},{"day":"Sunday","start":"8:00 PM","end":"9:00 PM","name":"Rainbow Room  Rainbow Room","location":"46th Street Club House","address":"252 W 46TH ST New York NY ","lat":"40.7593831","long":"-73.9872329","region":"04","type":"BB = Big Book meeting","interest":"Gay, Lesbian and Bisexual"},{"day":"Friday","start":"12:30 PM","end":"1:30 PM","name":"Renaissance  Renaissance","location":"The Learning Center","address":"4 W 43RD ST New York NY ","lat":"40.7543885","long":"-73.9812083","region":"04","type":"C = Closed Discussion meeting","interest":"undefined"},{"day":"Saturday","start":"9:15 PM","end":"10:15 PM","name":"Saturday Rotating 12 Step","location":"46th Street Club House","address":"252 W 46TH ST New York NY ","lat":"40.7593831","long":"-73.9872329","region":"04","type":"S = Step meeting","interest":"undefined"},{"day":"Friday","start":"6:30 PM","end":"7:30 PM","name":"Spiritual Fridays","location":"Church of The Holy Apostles","address":"296 NINTH AVE New York NY ","lat":"40.7493539","long":"-73.998973","region":"04","type":"OD = Open Discussion meeting","interest":"Spiritual Workshop"},{"day":"Tuesday","start":"7:45 AM","end":"8:45 AM","name":"St. Thomas A.m.  St. Thomas A.m.","location":"St. Thomas Church Parish House","address":"1 W 53RD ST New York NY ","lat":"40.7608523","long":"-73.9765938","region":"04","type":"C = Closed Discussion meeting","interest":"undefined"},{"day":"Thursday","start":"12:00 PM","end":"1:00 PM","name":"Statler At Noon  Statler At Noon","location":"St. John the Baptist Church","address":"210 W 31ST ST New York NY ","lat":"40.6456042","long":"-73.9481792","region":"04","type":"C = Closed Discussion meeting","interest":"undefined"},{"day":"Wednesday","start":"7:00 PM","end":"8:15 PM","name":"Steps And Traditions On Wednesday  Eightieth Street","location":"Trinity Presbyterian Church","address":"422 W 57TH ST New York NY ","lat":"40.7682311","long":"-73.9868768","region":"04","type":"S = Step meeting","interest":"undefined"},{"day":"Sunday","start":"9:15 PM","end":"10:15 PM","name":"Sunday Night Beginners","location":"46th Street Club House","address":"252 W 46TH ST New York NY ","lat":"40.7593831","long":"-73.9872329","region":"04","type":"B = Beginners meeting","interest":"undefined"},{"day":"Tuesday","start":"6:00 PM","end":"7:00 PM","name":"Tuesday Sober Agnostics","location":"","address":"134 W 29TH ST New York NY ","lat":"40.7472463","long":"-73.9917061","region":"04","type":"OD = Open Discussion meeting","interest":"Agnostic"},{"day":"Friday","start":"7:30 PM","end":"8:30 PM","name":"West 58th Street Step  West 58th Street Step","location":"Mount Sinai - Roosevelt Hospital","address":"1000 TENTH AVE New York NY ","lat":"40.7700536177104","long":"-73.9877635987168","region":"04","type":"S = Step meeting","interest":"undefined"},{"day":"Friday","start":"6:30 PM","end":"7:45 PM","name":"Women Over Forty  Women Over Forty","location":"GMHC","address":"446 W 33RD ST New York NY ","lat":"40.753496","long":"-73.9989428","region":"04","type":"C = Closed Discussion meeting","interest":"Women"},{"day":"Sunday","start":"7:30 PM","end":"8:30 PM","name":"Young In 164","location":"St. Clements Church","address":"423 W 46TH ST New York NY ","lat":"40.7614721","long":"-73.9916406","region":"04","type":"BB = Big Book meeting","interest":"undefined"},{"day":"Friday","start":"9:15 PM","end":"10:15 PM","name":"Young People's Meeting","location":"46th Street Club House","address":"252 W 46TH ST New York NY ","lat":"40.7593831","long":"-73.9872329","region":"04","type":"BB = Big Book meeting","interest":"Young People"}]