[{"day":"Saturday","start":"7:30 AM","end":"8:30 AM","name":"A Baffled Lot","location":"Jan Hus Church","address":"351 E 74TH ST New York NY ","lat":"40.7694194","long":"-73.9555151","region":"07","type":"OD = Open Discussion meeting","interest":"undefined"},{"day":"Tuesday","start":"7:00 PM","end":"8:00 PM","name":"A.a. Traditions And History","location":"Manhattan Church of Christ","address":"48 E 80TH ST New York NY ","lat":"40.7767263","long":"-73.9612366","region":"07","type":"T = Tradition meeting","interest":"undefined"},{"day":"Wednesday","start":"6:00 PM","end":"7:00 PM","name":"Active  Active","location":"St. Jean Baptiste Church","address":"184 E 76TH ST New York NY ","lat":"40.7725462","long":"-73.9594994","region":"07","type":"S = Step meeting","interest":"undefined"},{"day":"Friday","start":"2:30 PM","end":"3:30 PM","name":"Afternoon Awakening","location":"Jan Hus Church","address":"351 E 74TH ST New York NY ","lat":"40.7694194","long":"-73.9555151","region":"07","type":"S = Step meeting","interest":"undefined"},{"day":"Monday","start":"7:15 PM","end":"8:15 PM","name":"Atlantic Eleventh Step Meditation","location":"Church of the Epiphany","address":"1393 YORK AVE New York NY ","lat":"40.768415","long":"-73.9528341","region":"07","type":"S = Step meeting","interest":"undefined"},{"day":"Tuesday","start":"7:00 PM","end":"8:00 PM","name":"Atlantic Group (:i)  Atlantic    (:i)","location":"Christ United Methodist Church","address":"520 PARK AVE New York NY ","lat":"40.6968483","long":"-73.9549879","region":"07","type":"O = Open meeting","interest":"undefined"},{"day":"Thursday","start":"7:00 PM","end":"8:00 PM","name":"Atlantic Group (:ii)","location":"Archdiocian Cathedral of the Holy Trinity","address":"337 E 74TH ST New York NY ","lat":"40.7696836","long":"-73.9561119","region":"07","type":"B = Beginners meeting","interest":"undefined"},{"day":"Saturday","start":"6:00 PM","end":"7:00 PM","name":"Atlantic Group (:iii)","location":"All Souls Church","address":"1157 LEXINGTON AVE New York NY ","lat":"40.7754455","long":"-73.9583638","region":"07","type":"O = Open meeting","interest":"undefined"},{"day":"Friday","start":"6:30 PM","end":"7:30 PM","name":"Breaking Through  Breaking Through","location":"Gracie Square Hospital","address":"420 E 76TH ST New York NY ","lat":"40.7697705","long":"-73.9529077","region":"07","type":"B = Beginners meeting","interest":"undefined"},{"day":"Sunday","start":"3:30 PM","end":"4:30 PM","name":"Came To Believe  Came To Believe","location":"Our Lady of Good Counsel Church","address":"230 E 90TH ST New York NY ","lat":"40.780841","long":"-73.9510956","region":"07","type":"B = Beginners meeting","interest":"undefined"},{"day":"Tuesday","start":"6:15 PM","end":"7:15 PM","name":"Carnegie Hill  Carnegie Hill","location":"St. Thomas More Church","address":"65 E 89TH ST New York NY ","lat":"40.78259","long":"-73.9566571","region":"07","type":"C = Closed Discussion meeting","interest":"undefined"},{"day":"Sunday","start":"7:15 PM","end":"8:15 PM","name":"Central  Central I","location":"St. James Episcopal Church","address":"865 MADISON AVE New York NY ","lat":"40.7713251","long":"-73.9655852","region":"07","type":"B = Beginners meeting","interest":"undefined"},{"day":"Sunday","start":"7:00 PM","end":"8:00 PM","name":"Chapter Five  Chapter Five     (:i)","location":"Immanuel Lutheran Church","address":"1296 LEXINGTON AVE New York NY ","lat":"40.780135833909","long":"-73.9552304898083","region":"07","type":"C = Closed Discussion meeting","interest":"undefined"},{"day":"Sunday","start":"9:00 AM","end":"10:00 AM","name":"Eleventh Step At Jan Hus  Eleventh Step At Jan Hus","location":"Jan Hus Church","address":"351 E 74TH ST New York NY ","lat":"40.7694194","long":"-73.9555151","region":"07","type":"S = Step meeting","interest":"undefined"},{"day":"Friday","start":"7:30 PM","end":"8:30 PM","name":"Fearless","location":"All Souls Uniterian Church","address":"1157 LEXINGTON AVE New York NY ","lat":"40.7754455","long":"-73.9583638","region":"07","type":"C = Closed Discussion meeting","interest":"undefined"},{"day":"Friday","start":"6:30 PM","end":"7:30 PM","name":"Friday Central","location":"Jan Hus Church","address":"351 E 74TH ST New York NY ","lat":"40.7694194","long":"-73.9555151","region":"07","type":"C = Closed Discussion meeting","interest":"undefined"},{"day":"Friday","start":"8:00 PM","end":"9:00 PM","name":"Friday Night Gay Men & Women  Friday Night Gay Men & Women","location":"Jan Hus Church","address":"351 E 74TH ST New York NY ","lat":"40.7694194","long":"-73.9555151","region":"07","type":"S = Step meeting","interest":"Gay, Lesbian and Bisexual"},{"day":"Friday","start":"6:15 PM","end":"7:15 PM","name":"Friday Night Men's Step  Friday Night Men's Step","location":"St. Thomas More Church Rectory","address":"65 E 89TH ST New York NY ","lat":"40.78259","long":"-73.9566571","region":"07","type":"S = Step meeting","interest":"Men"},{"day":"Monday","start":"6:15 PM","end":"7:15 PM","name":"Humanists Too","location":"Church of Saint Thomas Moore","address":"65 E 89TH ST New York NY ","lat":"40.78259","long":"-73.9566571","region":"07","type":"undefined","interest":"Agnostic"},{"day":"Saturday","start":"12:30 PM","end":"1:30 PM","name":"I'm All In","location":"Jan Hus Church","address":"351 E 74TH ST New York NY ","lat":"40.7694194","long":"-73.9555151","region":"07","type":"B = Beginners meeting","interest":"undefined"},{"day":"Wednesday","start":"6:30 PM","end":"7:30 PM","name":"Into Action Manhattan  Into Action Manhattan","location":"St. Francis de Sales Church","address":"135 E 96TH ST New York NY ","lat":"40.7862757","long":"-73.951491","region":"07","type":"S = Step meeting","interest":"Big Book Workshop"},{"day":"Saturday","start":"11:00 AM","end":"12:00 PM","name":"Kitchen Table Meeting","location":"Jan Hus Presbyterian Church","address":"351 E 74TH ST New York NY ","lat":"40.7694194","long":"-73.9555151","region":"07","type":"C = Closed Discussion meeting","interest":"undefined"},{"day":"Thursday","start":"8:15 PM","end":"9:00 PM","name":"Lenox Hill  Lenox Hill","location":"Church of the Heavenly Rest","address":"2 E 90TH ST New York NY ","lat":"40.7836928","long":"-73.9578694","region":"07","type":"B = Beginners meeting","interest":"undefined"},{"day":"Wednesday","start":"6:30 PM","end":"7:30 PM","name":"Lex 80 Step","location":"All Souls Uniterian Church","address":"1157 LEXINGTON AVE New York NY ","lat":"40.7754455","long":"-73.9583638","region":"07","type":"S = Step meeting","interest":"Twelve Steps"},{"day":"Thursday","start":"7:00 PM","end":"8:00 PM","name":"Live And Let Live  Live And Let Live","location":"Gracie Square Hospital","address":"420 E 76TH ST New York NY ","lat":"40.7697705","long":"-73.9529077","region":"07","type":"OD = Open Discussion meeting","interest":"Gay, Lesbian and Bisexual"},{"day":"Saturday","start":"7:00 PM","end":"8:00 PM","name":"Madison 73  Madison 73","location":"Jan Hus Presbyterian Church","address":"351 E 74TH ST New York NY ","lat":"40.7694194","long":"-73.9555151","region":"07","type":"S = Step meeting","interest":"undefined"},{"day":"Friday","start":"11:00 AM","end":"12:00 PM","name":"Meditation (expect Miracles)  Meditation (expect Miracles)","location":"Jan Hus Church","address":"351 E 74TH ST New York NY ","lat":"40.7694194","long":"-73.9555151","region":"07","type":"OD = Open Discussion meeting","interest":"undefined"},{"day":"Wednesday","start":"7:00 PM","end":"8:30 PM","name":"Men's Nyc Big Book Step Study","location":"Philomathist Center","address":"1285 MADISON AVE New York NY ","lat":"40.7843189","long":"-73.9560924","region":"07","type":"BB = Big Book meeting","interest":"undefined"},{"day":"Sunday","start":"7:30 PM","end":"8:30 PM","name":"Metropolitan  Metropolitan","location":"St. Ignatius Loyola School","address":"48 E 84TH ST New York NY ","lat":"40.7790604","long":"-73.9588788","region":"07","type":"S = Step meeting","interest":"undefined"},{"day":"Monday","start":"7:00 PM","end":"8:00 PM","name":"Monday East Topic  Monday East Topic","location":"St. Stephen of Hungary Church","address":"408 E 82ND ST New York NY ","lat":"40.7738528","long":"-73.9504699","region":"07","type":"C = Closed Discussion meeting","interest":"undefined"},{"day":"Monday","start":"7:15 PM","end":"8:15 PM","name":"Monday Women","location":"Jan Hus Church","address":"351 E 74TH ST New York NY ","lat":"40.7694194","long":"-73.9555151","region":"07","type":"C = Closed Discussion meeting","interest":"Women"},{"day":"Friday","start":"9:30 AM","end":"10:30 AM","name":"Morning Reflections","location":"Jan Hus Church","address":"351 E 74TH ST New York NY ","lat":"40.7694194","long":"-73.9555151","region":"07","type":"OD = Open Discussion meeting","interest":"Daily Reflections"},{"day":"Wednesday","start":"6:30 PM","end":"7:30 PM","name":"New Choices  New Choices","location":"Congregational Kehilath Jeshurun","address":"125 E 85TH ST New York NY ","lat":"40.7790514","long":"-73.956386","region":"07","type":"S = Step meeting","interest":"undefined"},{"day":"Monday","start":"7:15 PM","end":"8:15 PM","name":"Open Book","location":"Jan Hus Church","address":"351 E 74TH ST New York NY ","lat":"40.7694194","long":"-73.9555151","region":"07","type":"BB = Big Book meeting","interest":"undefined"},{"day":"Saturday","start":"9:30 AM","end":"10:30 AM","name":"Our Primary Purpose","location":"Jan Hus Church","address":"351 E 74TH ST New York NY ","lat":"40.7694194","long":"-73.9555151","region":"07","type":"S = Step meeting","interest":"Women"},{"day":"Thursday","start":"12:30 PM","end":"1:30 PM","name":"Park Bench   (:ii)","location":"St. James Church","address":"865 MADISON AVE New York NY ","lat":"40.7713251","long":"-73.9655852","region":"07","type":"C = Closed Discussion meeting","interest":"undefined"},{"day":"Friday","start":"8:00 PM","end":"9:00 PM","name":"Park Madison  Park Madison","location":"Brick Church Parish House","address":"62 E 92ND ST New York NY ","lat":"40.7842393","long":"-73.955258","region":"07","type":"S = Step meeting","interest":"undefined"},{"day":"Saturday","start":"11:00 AM","end":"12:00 PM","name":"Perseverance  Perseverance","location":"Jan Hus Church","address":"351 E 74TH ST New York NY ","lat":"40.7694194","long":"-73.9555151","region":"07","type":"OD = Open Discussion meeting","interest":"undefined"},{"day":"Wednesday","start":"7:00 PM","end":"8:00 PM","name":"Recovery Room  Recovery Room","location":"St. Joseph's School","address":"420 E 87TH ST New York NY ","lat":"40.7770465","long":"-73.9479432","region":"07","type":"B = Beginners meeting","interest":"undefined"},{"day":"Wednesday","start":"6:30 PM","end":"7:30 PM","name":"Renewal East","location":"Central Presbyterian Church","address":"593 PARK AVE New York NY ","lat":"40.765841","long":"-73.9673386","region":"07","type":"C = Closed Discussion meeting","interest":"undefined"},{"day":"Thursday","start":"6:30 PM","end":"7:30 PM","name":"Renewal North","location":"St. Thomas More Church","address":"65 E 89TH ST New York NY ","lat":"40.78259","long":"-73.9566571","region":"07","type":"OD = Open Discussion meeting","interest":"undefined"},{"day":"Thursday","start":"7:00 PM","end":"8:00 PM","name":"Rhinelander  Rhinelander","location":"St. James Episcopal Church","address":"865 MADISON AVE New York NY ","lat":"40.7713251","long":"-73.9655852","region":"07","type":"B = Beginners meeting","interest":"undefined"},{"day":"Saturday","start":"6:30 PM","end":"7:30 PM","name":"Roosevelt Island Serenity","location":"","address":"CHURCH OF THE GOOD SHEPARD New York NY ","lat":"40.6639307188879","long":"-73.9382749875207","region":"07","type":"C = Closed Discussion meeting","interest":"undefined"},{"day":"Sunday","start":"10:00 PM","end":"11:00 PM","name":"Seventyninth Street Workshop - Seventy-ninth Street Workshop    (:i)","location":"St. Monica's Church","address":"413 E 79TH ST New York NY ","lat":"40.7721222","long":"-73.9517608","region":"07","type":"C = Closed Discussion meeting","interest":"undefined"},{"day":"Saturday","start":"9:15 AM","end":"10:15 AM","name":"Sober Women  Sober Women","location":"Jan Hus Church","address":"351 E 74TH ST New York NY ","lat":"40.7694194","long":"-73.9555151","region":"07","type":"C = Closed Discussion meeting","interest":"Women"},{"day":"Saturday","start":"10:00 AM","end":"11:00 AM","name":"Step By Step  Step By Step","location":"New York Blood Center","address":"310 E 67TH ST New York NY ","lat":"40.7651821","long":"-73.9599207","region":"07","type":"S = Step meeting","interest":"undefined"},{"day":"Sunday","start":"10:00 AM","end":"11:00 AM","name":"Sunday On 70th  Sunday On 70th","location":"Lenox Hill Neighborhood House","address":"331 E 70TH ST New York NY ","lat":"40.766948","long":"-73.9577722","region":"07","type":"B = Beginners meeting","interest":"undefined"},{"day":"Saturday","start":"6:30 PM","end":"7:30 PM","name":"Sutton  Sutton","location":"Church of St. Catherine of Siena","address":"411 E 68TH ST New York NY ","lat":"40.7651081","long":"-73.957215","region":"07","type":"OD = Open Discussion meeting","interest":"undefined"},{"day":"Thursday","start":"12:00 PM","end":"1:00 PM","name":"Three Twelves  Three Twelves","location":"Church of the Heavenly Rest","address":"2 E 90TH ST New York NY ","lat":"40.7836928","long":"-73.9578694","region":"07","type":"C = Closed Discussion meeting","interest":"undefined"},{"day":"Friday","start":"8:30 PM","end":"9:30 PM","name":"Trinity  Trinity","location":"Holy Trinity Church","address":"341 E 87TH ST New York NY ","lat":"40.7780211","long":"-73.9497263","region":"07","type":"B = Beginners meeting","interest":"undefined"},{"day":"Wednesday","start":"6:15 PM","end":"7:15 PM","name":"We Humanists  We Humanists","location":"Jan Hus Church","address":"351 E 74TH ST New York NY ","lat":"40.7694194","long":"-73.9555151","region":"07","type":"C = Closed Discussion meeting","interest":"Agnostic"},{"day":"Thursday","start":"8:00 PM","end":"9:00 PM","name":"Wednesday East On Thursday  Wednesday East","location":"Jan Hus Church","address":"351 E 74TH ST New York NY ","lat":"40.7694194","long":"-73.9555151","region":"07","type":"C = Closed Discussion meeting","interest":"undefined"},{"day":"Thursday","start":"8:00 PM","end":"9:00 PM","name":"Yorkvillebutterfield - Yorkville","location":"Jan Hus Church","address":"351 E 74TH ST New York NY ","lat":"40.7694194","long":"-73.9555151","region":"07","type":"C = Closed Discussion meeting","interest":"undefined"}]