[{"day":"Friday","start":"6:00 PM","end":"7:00 PM","name":"A.a. On The Bowery  Aa On The Bowery","location":"University Settlement","address":"273 BOWERY New York NY ","lat":"40.7236736","long":"-73.9924832","region":"02","type":"C = Closed Discussion meeting","interest":"undefined"},{"day":"Thursday","start":"6:15 PM","end":"7:15 PM","name":"After Five  After Five","location":"Manhattan Seventh-Day Adventist Church","address":"232 W 11TH ST New York NY ","lat":"40.736193","long":"-74.0028632","region":"02","type":"S = Step meeting","interest":"undefined"},{"day":"Saturday","start":"12:00 PM","end":"1:00 PM","name":"Afternoon Delight","location":"Hazelden Center","address":"283 W BROADWAY New York NY ","lat":"40.7208165","long":"-74.0048523","region":"02","type":"C = Closed Discussion meeting","interest":"undefined"},{"day":"Sunday","start":"6:30 PM","end":"7:45 PM","name":"Artists In Recovery (a.r.t.)","location":"Seventh Day Adventist Church","address":"232 W 11TH ST New York NY ","lat":"40.736193","long":"-74.0028632","region":"02","type":"B = Beginners meeting","interest":"undefined"},{"day":"Sunday","start":"10:30 AM","end":"12:00 PM","name":"Bagels And Big Book","location":"","address":"220 W HOUSTON ST New York NY ","lat":"40.7286385","long":"-74.0045871","region":"02","type":"OD = Open Discussion meeting","interest":"undefined"},{"day":"Monday","start":"5:15 PM","end":"6:15 PM","name":"Center Meeting","location":"Golden Bridge Yoga Center","address":"253 CENTER ST New York NY ","lat":"40.7206323","long":"-73.9979756","region":"02","type":"OD = Open Discussion meeting","interest":"Meditation at Meeting"},{"day":"Friday","start":"6:45 PM","end":"8:00 PM","name":"East Village Sober Agnostics  Sober Agnostics","location":"University Settlement (The Chinatown YMCA)","address":"273 BOWERY New York NY ","lat":"40.7236736","long":"-73.9924832","region":"02","type":"OD = Open Discussion meeting","interest":"Agnostic"},{"day":"Friday","start":"8:00 PM","end":"9:00 PM","name":"Greenwich Village  Greenwich Village","location":"St. Luke's Episcopal School","address":"487 HUDSON ST New York NY ","lat":"40.7325884","long":"-74.0066592","region":"02","type":"S = Step meeting","interest":"undefined"},{"day":"Sunday","start":"3:00 PM","end":"4:00 PM","name":"Grupo Central  Grupo Central","location":"St. Augustine's Church","address":"292 HENRY ST New York NY ","lat":"40.7137143","long":"-73.983033","region":"02","type":"O = Open meeting","interest":"undefined"},{"day":"Monday","start":"7:00 PM","end":"8:00 PM","name":"Happy, Joyous And Free","location":"Manhattan Church of The Seventh-day Adventist","address":"232 W 11TH ST New York NY ","lat":"40.736193","long":"-74.0028632","region":"02","type":"C = Closed Discussion meeting","interest":"Gay Men"},{"day":"Tuesday","start":"7:00 PM","end":"8:00 PM","name":"Lower East Side","location":"Church of Saint Theresa Rectory","address":"141 HENRY ST New York NY ","lat":"40.6964191","long":"-73.9933777","region":"02","type":"C = Closed Discussion meeting","interest":"undefined"},{"day":"Sunday","start":"10:00 PM","end":"11:15 PM","name":"Midnite","location":"","address":"220 W HOUSTON ST New York NY ","lat":"40.7286385","long":"-74.0045871","region":"02","type":"C = Closed Discussion meeting","interest":"undefined"},{"day":"Sunday","start":"12:30 PM","end":"1:30 PM","name":"New Group  New Group","location":"St. John's Lutheran Church","address":"83 CHRISTOPHER ST New York NY ","lat":"40.7335702","long":"-74.0037456","region":"02","type":"O = Open meeting","interest":"Gay, Lesbian and Bisexual"},{"day":"Sunday","start":"10:30 PM","end":"11:30 PM","name":"Perry Street Workshop  Perry Street Workshop     (:i)","location":"","address":"50 PERRY ST New York NY ","lat":"40.7354854","long":"-74.0031569","region":"02","type":"C = Closed Discussion meeting","interest":"undefined"},{"day":"Thursday","start":"6:30 PM","end":"7:45 PM","name":"Primetime Nyc (i)","location":"Seventh Day Adventist Church","address":"232 W 11TH ST New York NY ","lat":"40.736193","long":"-74.0028632","region":"02","type":"OD = Open Discussion meeting","interest":"undefined"},{"day":"Sunday","start":"8:30 PM","end":"9:30 PM","name":"Red Door  Red Door","location":"St. John's Episcopal Church","address":"224 WAVERLY PL New York NY ","lat":"40.7360657","long":"-74.0019452","region":"02","type":"OD = Open Discussion meeting","interest":"Gay, Lesbian and Bisexual"},{"day":"Friday","start":"7:30 AM","end":"8:30 AM","name":"Room For Improvement     (:i)  Room For Improvement","location":"St. Anthony's of Padua","address":"154 SULLIVAN ST New York NY ","lat":"40.7273786","long":"-74.0017414","region":"02","type":"S = Step meeting","interest":"undefined"},{"day":"Sunday","start":"7:30 AM","end":"8:30 AM","name":"Room For Improvement     (:ii)","location":"Chinatown YMCA","address":"273 BOWERY ST New York NY ","lat":"40.7236736","long":"-73.9924832","region":"02","type":"undefined","interest":"Topic"},{"day":"Saturday","start":"6:00 PM","end":"7:00 PM","name":"Sheridan Square Follies  Sheridan Square Follies","location":"St. Joseph's Church","address":"371 6TH AVE New York NY ","lat":"40.6701581","long":"-73.9819879","region":"02","type":"B = Beginners meeting","interest":"Gay, Lesbian and Bisexual"},{"day":"Friday","start":"8:00 PM","end":"9:00 PM","name":"Soho    (:i)","location":"St. Anthony of Padua Church","address":"155 SULLIVAN ST New York NY ","lat":"40.6792556","long":"-74.0145369","region":"02","type":"C = Closed Discussion meeting","interest":"undefined"},{"day":"Sunday","start":"11:00 AM","end":"12:15 PM","name":"Spiritual Workshop  Spiritual Workshop","location":"The Bronfman Cernter @ NYU","address":"7 E 10TH STRERT New York NY ","lat":"40.7332068","long":"-73.9946888","region":"02","type":"C = Closed Discussion meeting","interest":"Eleventh Step"},{"day":"Monday","start":"6:30 PM","end":"7:30 PM","name":"T&atogetherness & Action -","location":"Seventh Adventist Church","address":"232 W 11TH ST New York NY ","lat":"40.736193","long":"-74.0028632","region":"02","type":"undefined","interest":"Women"},{"day":"Tuesday","start":"8:00 PM","end":"9:00 PM","name":"Ten Plus","location":"St. John's Lutheran Church","address":"81 CHRISTOPHER ST New York NY ","lat":"40.7335983","long":"-74.0035744","region":"02","type":"C = Closed Discussion meeting","interest":"undefined"},{"day":"Thursday","start":"7:00 PM","end":"8:00 PM","name":"The Captain's Table","location":"University Settlement (The Chinatown YMCA)","address":"273 BOWERY New York NY ","lat":"40.7236736","long":"-73.9924832","region":"02","type":"BB = Big Book meeting","interest":"Men"},{"day":"Tuesday","start":"6:45 PM","end":"8:00 PM","name":"Together We Can","location":"Manhattan Seventh-Day Adventist Church","address":"232 W 11TH ST New York NY ","lat":"40.736193","long":"-74.0028632","region":"02","type":"S = Step meeting","interest":"undefined"},{"day":"Wednesday","start":"6:15 PM","end":"7:15 PM","name":"Wednesday Focus  Wednesday Focus","location":"Manhattan Church of The Seventh-day Adventist","address":"232 W 11TH ST New York NY ","lat":"40.736193","long":"-74.0028632","region":"02","type":"C = Closed Discussion meeting","interest":"undefined"},{"day":"Thursday","start":"6:30 PM","end":"7:45 PM","name":"West Village Women","location":"St. John's Lutheran Church","address":"83 CHRISTOPHER ST New York NY ","lat":"40.7335702","long":"-74.0037456","region":"02","type":"C = Closed Discussion meeting","interest":"Women"},{"day":"Saturday","start":"4:45 PM","end":"5:45 PM","name":"Women Into Action  Women Straight Ahead Saturday","location":"","address":"220 W HOUSTON ST New York NY ","lat":"40.7286385","long":"-74.0045871","region":"02","type":"C = Closed Discussion meeting","interest":"Women"},{"day":"Friday","start":"6:15 PM","end":"7:30 PM","name":"Women Together      (:ii)  Women Together    (:ii)","location":"University Settlement @ Houston Street Center","address":"273 BOWERY New York NY ","lat":"40.7236736","long":"-73.9924832","region":"02","type":"C = Closed Discussion meeting","interest":"Lesbian"}]